var fireStation ={
"type": "FeatureCollection",
"name": "Fire_station",
"crs": { "type": "name", "properties": { "name": "urn:ogc:def:crs:OGC:1.3:CRS84" } },
"features": [
{ "type": "Feature", "properties": { "Fire station": "VELLIMADUKUNNU", "Latitude": 11.29076, "Longitude": 75.81642, "RTOCode": "KL11" }, "geometry": { "type": "Point", "coordinates": [ 75.81642, 11.29076 ] } },
{ "type": "Feature", "properties": { "Fire station": "VELLAYIL", "Latitude": 11.26264, "Longitude": 75.76729, "RTOCode": "KL11" }, "geometry": { "type": "Point", "coordinates": [ 75.76729, 11.26264 ] } },
{ "type": "Feature", "properties": { "Fire station": "MEENCHANDA", "Latitude": 11.21451, "Longitude": 75.79912, "RTOCode": "KL11" }, "geometry": { "type": "Point", "coordinates": [ 75.79912, 11.21451 ] } },
{ "type": "Feature", "properties": { "Fire station": "NARIKKUNI", "Latitude": 11.37273, "Longitude": 75.85275, "RTOCode": "KL76" }, "geometry": { "type": "Point", "coordinates": [ 75.85275, 11.37273 ] } },
{ "type": "Feature", "properties": { "Fire station": "MUKKOM", "Latitude": 11.32758, "Longitude": 75.98828, "RTOCode": "KL57" }, "geometry": { "type": "Point", "coordinates": [ 75.98828, 11.32758 ] } },
{ "type": "Feature", "properties": { "Fire station": "KOYILANDI", "Latitude": 11.44406, "Longitude": 75.693386, "RTOCode": "KL56" }, "geometry": { "type": "Point", "coordinates": [ 75.693386, 11.44406 ] } },
{ "type": "Feature", "properties": { "Fire station": "VADAKARA", "Latitude": 11.610085, "Longitude": 75.590784, "RTOCode": "KL18" }, "geometry": { "type": "Point", "coordinates": [ 75.590784, 11.610085 ] } },
{ "type": "Feature", "properties": { "Fire station": "NADAPURAM", "Latitude": 11.684346, "Longitude": 75.682241, "RTOCode": "KL18" }, "geometry": { "type": "Point", "coordinates": [ 75.682241, 11.684346 ] } },
{ "type": "Feature", "properties": { "Fire station": "PERAMBRA", "Latitude": 11.56281, "Longitude": 75.747422, "RTOCode": "KL77" }, "geometry": { "type": "Point", "coordinates": [ 75.747422, 11.56281 ] } }
]
}
